filename,date,time,DOY,daytime,file_records,used_records,Tau,qc_Tau,H,qc_H,LE,qc_LE,co2_flux,qc_co2_flux,h2o_flux,qc_h2o_flux,ch4_flux,qc_ch4_flux,H_strg,LE_strg,co2_strg,h2o_strg,ch4_strg,co2_v-adv,h2o_v-adv,ch4_v-adv,co2_molar_density,co2_mole_fraction,co2_mixing_ratio,co2_time_lag,co2_def_timelag,h2o_molar_density,h2o_mole_fraction,h2o_mixing_ratio,h2o_time_lag,h2o_def_timelag,ch4_molar_density,ch4_mole_fraction,ch4_mixing_ratio,ch4_time_lag,ch4_def_timelag,sonic_temperature,air_temperature,air_pressure,air_density,air_heat_capacity,air_molar_volume,ET,water_vapor_density,e,es,specific_humidity,RH,VPD,Tdew,u_unrot,v_unrot,w_unrot,u_rot,v_rot,w_rot,wind_speed,max_wind_speed,wind_dir,yaw,pitch,roll,u*,TKE,L,(z-d)/L,bowen_ratio,T*,model,x_peak,x_offset,x_10%,x_30%,x_50%,x_70%,x_90%,un_Tau,Tau_scf,un_H,H_scf,un_LE,LE_scf,un_co2_flux,co2_scf,un_h2o_flux,h2o_scf,un_ch4_flux,ch4_scf,spikes_hf,amplitude_resolution_hf,drop_out_hf,absolute_limits_hf,skewness_kurtosis_hf,skewness_kurtosis_sf,discontinuities_hf,discontinuities_sf,timelag_hf,timelag_sf,attack_angle_hf,non_steady_wind_hf,u_spikes,v_spikes,w_spikes,ts_spikes,co2_spikes,h2o_spikes,ch4_spikes,head_detect_LI-7200,t_out_LI-7200,t_in_LI-7200,aux_in_LI-7200,delta_p_LI-7200,chopper_LI-7200,detector_LI-7200,pll_LI-7200,sync_LI-7200,not_ready_LI-7700,no_signal_LI-7700,re_unlocked_LI-7700,bad_temp_LI-7700,laser_temp_unregulated_LI-7700,block_temp_unregulated_LI-7700,motor_spinning_LI-7700,pump_on_LI-7700,top_heater_on_LI-7700,bottom_heater_on_LI-7700,calibrating_LI-7700,motor_failure_LI-7700,bad_aux_tc1_LI-7700,bad_aux_tc2_LI-7700,bad_aux_tc3_LI-7700,box_connected_LI-7700,mean_value_RSSI_LI-7200,u_var,v_var,w_var,ts_var,co2_var,h2o_var,ch4_var,w/ts_cov,w/co2_cov,w/h2o_cov,w/ch4_cov,air_p_mean,co2_mean,co2_mean,h2o_mean,h2o_mean,dew_point_mean,avg_signal_strength_7200_mean,co2_signal_strength_7200_mean,h2o_signal_strength_7200_mean,delta_signal_strength_7200_mean,flowrate_mean,ch4_mean,rssi_77_mean,ch4_aux-1_mean,ch4_aux-2_mean,ch4_aux-3_mean,ch4_aux-4_mean,ch4_tc_1_mean,ch4_tc_2_mean,ch4_tc_3_mean,T. aire
,[yyyy-mm-dd],[HH:MM],[ddd.ddd],[1=daytime],[#],[#],[kg+1m-1s-2],[#],[W+1m-2],[#],[W+1m-2],[#],[µmol+1s-1m-2],[#],[mmol+1s-1m-2],[#],[µmol+1s-1m-2],[#],[W+1m-2],[W+1m-2],[µmol+1s-1m-2],[mmol+1s-1m-2],[µmol+1s-1m-2],[µmol+1s-1m-2],[mmol+1s-1m-2],[µmol+1s-1m-2],[mmol+1m-3],[µmol+1mol_a-1],[µmol+1mol_d-1],[s],[1=default],[mmol+1m-3],[mmol+1mol_a-1],[mmol+1mol_d-1],[s],[1=default],[mmol+1m-3],[µmol+1mol_a-1],[µmol+1mol_d-1],[s],[1=default],[K],[K],[Pa],[kg+1m-3],[J+1kg-1K-1],[m+3mol-1],[mm+1hour-1],[kg+1m-3],[Pa],[Pa],[kg+1kg-1],[%],[Pa],[K],[m+1s-1],[m+1s-1],[m+1s-1],[m+1s-1],[m+1s-1],[m+1s-1],[m+1s-1],[m+1s-1],[deg_from_north],[deg],[deg],[deg],[m+1s-1],[m+2s-2],[m],[#],[#],[K],[0=KJ/1=KM/2=HS],[m],[m],[m],[m],[m],[m],[m],[kg+1m-1s-2],[#],[W+1m-2],[#],[W+1m-2],[#],[µmol+1s-1m-2],[#],[mmol+1s-1m-2],[#],[µmol+1s-1m-2],[#],8u/v/w/ts/co2/h2o/ch4/none,8u/v/w/ts/co2/h2o/ch4/none,8u/v/w/ts/co2/h2o/ch4/none,8u/v/w/ts/co2/h2o/ch4/none,8u/v/w/ts/co2/h2o/ch4/none,8u/v/w/ts/co2/h2o/ch4/none,8u/v/w/ts/co2/h2o/ch4/none,8u/v/w/ts/co2/h2o/ch4/none,8co2/h2o/ch4/none,8co2/h2o/ch4/none,8aa,8U,[#],[#],[#],[#],[#],[#],[#],[#_flagged_recs],[#_flagged_recs],[#_flagged_recs],[#_flagged_recs],[#_flagged_recs],[#_flagged_recs],[#_flagged_recs],[#_flagged_recs],[#_flagged_recs],[#_flagged_recs],[#_flagged_recs],[#_flagged_recs],[#_flagged_recs],[#_flagged_recs],[#_flagged_recs],[#_flagged_recs],[#_flagged_recs],[#_flagged_recs],[#_flagged_recs],[#_flagged_recs],[#_flagged_recs],[#_flagged_recs],[#_flagged_recs],[#_flagged_recs],[#_flagged_recs],[#],[m+2s-2],[m+2s-2],[m+2s-2],[K+2],--,--,--,[m+1K+1s-1],--,--,--,--,--,--,--,--,--,--,--,--,--,--,--,--,--,--,--,--,--,--,--,C
2018-06-28T170000_AIU-0962.ghg,06/28/2018,17:10:00,179.715,1,6000,6000,0.34,0,178.04,0,94.43,1,79.89,0,2.17,1,4.18,0,-9999,-9999,-9999,-9999,-9999,-5.92E-11,-3.56E-12,-3.72E-13,13.5262195843,362.164625345,370.228038236,0.2,0,813.429649225,21.7795846296,22.2644961068,0.2,0,8.50E-02,2.1987526031,2.2477067219,-0.1,0,309.4117465973,307.8468305257,98090.4446067708,1.100926059,1017.9589416637,2.61E-02,0.1404381449,1.50E-02,2136.9421980764,5513.9706892833,1.37E-02,38.7550518219,3377.0284912069,291.7263586771,1.7397252716,-4.8284045131,0.4595157146,5.1527942764,-5.16E-14,-4.37E-15,5.1527942764,10.2146050803,210.1853714779,289.8146285221,5.116317873,-9999,0.55,1.9215696939,-82.5709351737,-3.29E-02,1.8854842684,0.2865334263,0,25.8141856182,-3.9174022593,8.8611745769,22.065577608,33.6513981064,47.20,70.71,0.3327669914,1.0170535552,180.6498825398,1.0243040908,83.8702657367,1.1258893973,70.9587082392,1.1258893973,1.9249273749,1.1258893973,3.547044193,1.170056275,800000009,800000009,800000009,800000009,800000009,800001019,899999999,899999999,89999,89999,89,89,1,1,0,1,18,4,0,0,0,0,0,0,0,0,0,0,0,0,0,0,0,0,0,0,0,0,0,0,6000,6000,6000,6000,100,1.232126906,2.2443668827,0.3666455992,0.4681559201,52.6999550227,4.70E-02,1.92E-04,0.1611941477,1.8927339669,5.13E-02,3.55E-03,98537.5704661458,362.105232366,370.1677840271,21.7780505689,22.262951701,18.1663336123,97.5703101362,98.0023034744,97.1383239784,0.8639809832,3.02E-04,2.1781584726,60.6419145425,-999.9000244141,1.62E-06,1.00E-05,-9.21E-06,9999.990234375,9999.990234375,9999.990234375,34.6968305257
2018-06-28T170000_AIU-0962.ghg,06/28/2018,17:20:00,179.722,1,6000,6000,0.28,0,215.10,0,149.42,1,85.28,0,3.43,1,4.85,0,2.181621767,-6.90E-02,-0.1391066451,-1.58E-03,3.24E-03,-4.15E-11,-2.50E-12,-2.62E-13,13.5036251352,361.7588196245,369.811450189,0.1,0,812.8093049915,21.7749627829,22.2596661856,0.2,0,8.52E-02,2.2080259466,2.2571758671,-0.1,0,309.4661502457,308.0632624512,98097.1989882812,1.1002302898,1017.9630832795,2.61E-02,0.2222641995,1.50E-02,2136.6358333216,5580.4371781502,1.37E-02,38.2879649947,3443.8013448286,291.7240687635,2.0045118608,-4.6203395904,0.4140859687,5.0534219021,7.15E-14,-3.07E-15,5.0534219021,10.0674527137,206.5466235405,293.4533764595,4.7001833235,-9999,0.50,2.5485352559,-51.4332303655,-5.29E-02,1.4395753145,0.3808199456,0,23.7851928646,-3.6094947811,8.1646870227,20.3312251193,31.0064011301,43.49,65.15,0.2751059862,1.0171237338,220.3856568698,1.0241699898,132.8814743538,1.1244278643,75.8439611156,1.1244278643,3.0504429739,1.1244278643,4.1098927468,1.1689737881,800000009,800000009,800000009,800000009,800000009,800001019,899999999,899999999,89999,89999,89,89,1,2,0,2,21,18,0,0,0,0,0,0,0,0,0,0,0,0,0,0,0,0,0,0,0,0,0,0,6000,6000,6000,6000,100,1.3013088237,3.423549855,0.3722118331,0.5228600179,57.6302893827,0.1225424137,2.53E-04,0.196773994,2.0243152621,8.14E-02,4.11E-03,98544.602610677,361.7128693329,369.7650903981,21.7738990302,22.2586871537,18.1621124048,97.5324223518,97.9646500765,97.1001930911,0.8644636953,3.02E-04,2.1843707676,57.8101323082,-999.9000244141,1.59E-06,1.12E-05,-6.79E-06,9999.990234375,9999.990234375,9999.990234375,34.9132624512
2018-06-28T170000_AIU-0962.ghg,06/28/2018,17:30:00,179.729,1,6000,6000,0.24,0,174.78,0,45.48,0,74.47,0,1.04,0,3.99,0,-0.8771241602,11.1266565857,-0.3648914255,0.2554030775,-1.66E-02,3.37E-11,2.10E-12,2.09E-13,13.4782992682,360.6947294208,369.0046268716,0.2,0,841.5097484267,22.5197649179,23.0385885153,0.2,0,8.34E-02,2.1604544155,2.2102282358,-0.1,0,308.8920203552,307.9762877706,98104.6240462239,1.1003117594,1018.3802480876,2.61E-02,6.77E-02,1.55E-02,2209.8856903623,5553.6441890048,1.41E-02,39.7916325777,3343.7584986425,292.263549529,1.719070535,-4.3759818496,0.3662652737,4.7157789285,-1.78E-14,2.50E-15,4.7157789285,9.1480823846,208.553003123,291.446996877,4.4545367104,-9999,0.46,1.5483718452,-48.7962460979,-5.57E-02,3.8425193948,0.3373309367,0,25.071880026,-3.8047545219,8.606365088,21.4310659524,32.6837277964,45.84,68.68,0.2312142267,1.0174253675,174.6755832462,1.0237569178,40.6306933866,1.1194695162,66.5219120933,1.1194695162,0.9326435172,1.1194695162,3.3991298422,1.1653420862,800000009,800000009,800000009,800000009,800001019,800001019,899999999,899999999,89999,89999,89,89,3,0,0,0,8,3,0,0,0,0,0,0,0,0,0,0,0,0,0,0,0,0,0,0,0,0,0,0,6000,6000,6000,6000,100,1.896585076,0.9258744436,0.2742841708,0.3510013555,50.5938708879,0.3388630391,1.95E-04,0.1558857728,1.7762220026,2.49E-02,3.40E-03,98552.5610260416,360.6872183204,368.9972726021,22.51832998,23.0374319522,18.6963406289,97.5344750875,97.968574323,97.1003752772,0.8682005463,3.02E-04,2.1403242088,54.5841305599,-999.9000244141,3.05E-06,1.12E-05,-4.76E-06,9999.990234375,9999.990234375,9999.990234375,34.8262877706
2018-06-28T173000_AIU-0962.ghg,06/28/2018,17:40:00,179.735,1,6000,6000,0.37,0,193.29,0,11.81,2,65.67,0,0.27,2,3.61,0,-1.1225089763,13.9826212628,-0.57678056,0.3209243565,-2.43E-02,9.38E-12,6.13E-13,5.64E-14,13.4370833042,359.0134713213,367.6364683503,0.1,0,877.8774948132,23.4552275723,24.0185890443,0.2,1,8.07E-02,2.0909222258,2.1411432275,-0.1,0,308.6327926458,307.865047582,98112.3312649739,1.1004030812,1018.9052473484,2.61E-02,1.76E-02,1.62E-02,2301.864342627,5519.5386000849,1.47E-02,41.7039268933,3217.6742574579,292.9191924415,1.3199371332,-5.7327631156,0.5003485988,5.9039948929,-2.70E-14,6.98E-16,5.9039948929,9.7997505559,217.0339316308,282.9660683692,4.8615032653,-9999,0.58,1.5546856978,-88.0158997424,-3.09E-02,16.3725770201,0.2962007369,0,27.0904998899,-4.1110878741,9.2992919649,23.156551851,35.3152026634,49.53,74.21,0.3666172716,1.0167438897,190.6098409453,1.0254629125,10.3826482128,1.1370587301,57.75326072,1.1370587301,0.2382990023,1.1370587301,3.0341412417,1.1783703457,800000009,800000009,800000009,800000009,800000009,800001019,899999999,899999999,89999,89999,89,89,4,5,0,2,14,8,0,0,0,0,0,0,0,0,0,0,0,0,0,0,0,0,0,0,0,0,0,0,6000,6000,6000,6000,100,1.4659857933,1.2852918169,0.3580937854,0.3824880334,29.9185829227,5.06E-02,1.13E-04,0.170004228,1.5428864265,6.37E-03,3.03E-03,98561.1431354166,359.0124452378,367.6353632257,23.4539635239,24.0173296661,19.3530551462,97.5026763954,97.9398013395,97.0655575307,0.874240908,3.01E-04,2.0704946368,52.8138366251,-999.9000244141,3.56E-06,1.45E-05,-7.51E-06,9999.990234375,9999.990234375,9999.990234375,34.715047582
2018-06-28T173000_AIU-0962.ghg,06/28/2018,17:50:00,179.742,1,6000,6000,0.31,0,171.18,0,54.23,0,80.18,0,1.24,0,4.11,0,-7.051962641,3.9063985819,0.6982173692,8.96E-02,3.22E-02,4.92E-11,3.23E-12,3.07E-13,13.5345985836,361.0438643058,369.814296197,0.2,0,889.0428533373,23.715772974,24.2918735318,0.2,0,8.45E-02,2.1826462422,2.2356668086,-0.1,0,308.4871670278,307.1678806559,98123.5676588541,1.1029172911,1019.0318829259,2.60E-02,8.06E-02,1.64E-02,2327.7004675694,5309.8960276337,1.49E-02,43.8370253477,2982.1955600642,293.0992246249,1.7417561689,-4.8206072317,0.4266635587,5.1433462286,-3.01E-15,3.64E-15,5.1433462286,8.7698537936,210.1344680616,289.8655319384,4.7584091366,-9999,0.53,1.7013464134,-74.2757917163,-3.66E-02,3.1564185219,0.2883788151,0,25.9011792411,-3.9306038772,8.8910366725,22.1399384484,33.7648030799,47.36,70.95,0.3025041248,1.0170598791,171.6187272469,1.0242910662,48.1708098013,1.125856344,71.2140203645,1.125856344,1.1048449902,1.125856344,3.4848793663,1.1699542234,800000009,800000009,800000009,800000009,800000019,800001019,899999999,899999999,89999,89999,89,89,4,2,0,1,7,6,0,0,0,0,0,0,0,0,0,0,0,0,0,0,0,0,0,0,0,0,0,0,6000,6000,6000,6000,100,1.018809675,2.0539676883,0.3299154635,0.3729996719,57.1165637931,1.78E-02,1.91E-04,0.1526982146,1.8984735579,2.95E-02,3.48E-03,98571.989735026,360.9863707901,369.7557247374,23.7144310206,24.2904992527,19.5320680574,97.5001086019,97.9410170898,97.0592021255,0.8818151382,3.01E-04,2.1614214667,50.58621392,-999.9000244141,4.32E-06,1.68E-05,-9.84E-06,9999.990234375,9999.990234375,9999.990234375,34.0178806559
2018-06-28T173000_AIU-0962.ghg,06/28/2018,18:00:00,179.749,1,6000,6000,0.31,0,174.40,0,71.73,1,117.40,0,1.65,1,6.21,0,3.4039338625,-0.61506921,1.2032556324,-1.41E-02,7.34E-02,-5.56E-12,-3.61E-13,-3.76E-14,13.6774560601,364.5463467639,373.3861502076,0.2,0,888.2536103942,23.67469559,24.2487780283,0.2,0,9.25E-02,2.3921311251,2.4501373818,-0.1,0,308.5968217138,307.5047297109,98134.2752213541,1.1018466166,1019.0186396988,2.61E-02,0.1066413161,1.64E-02,2323.9222932018,5410.3102863178,1.49E-02,42.9535862126,3086.3879931161,293.073007071,1.4696237479,-4.3434681741,0.4472735371,4.6071209401,-2.01E-14,-4.06E-16,4.6071209401,7.9547659359,211.3066175814,288.6933824186,5.5712263917,-9999,0.53,1.753235048,-73.0526892505,-3.72E-02,2.4314262006,0.2938996431,0,26.7205324867,-4.0549438933,9.1722941275,22.8403092792,34.8329127878,48.85,73.19,0.3024574814,1.0175455692,175.9620931826,1.0236397112,64.1592545132,1.1179707889,105.0073817258,1.1179707889,1.4720414334,1.1179707889,5.3113587239,1.1641913237,800000009,800000009,800000009,800000009,800000009,800001119,899999999,899999999,89999,89999,89,89,1,1,1,1,14,10,0,0,0,0,0,0,0,0,0,0,0,0,0,0,0,0,0,0,0,0,0,0,6000,6000,6000,6000,100,1.4383469093,1.7625248949,0.3055982918,0.3437861496,120.4142407101,3.30E-02,4.58E-04,0.156716906,2.8020069624,3.93E-02,5.31E-03,98583.2316458333,364.4909659472,373.3307535083,23.6730953063,24.2471469111,19.5035030341,97.4768418032,97.9198445702,97.0338327001,0.8860070028,3.00E-04,2.36705174,47.5069085614,-999.9000244141,6.15E-06,2.24E-05,-1.37E-05,9999.990234375,9999.990234375,9999.990234375,34.3547297109
2018-06-28T180000_AIU-0962.ghg,06/28/2018,18:10:00,179.756,1,6000,6000,0.30,0,141.96,0,44.93,0,81.71,0,1.03,0,4.43,0,-5.3666980819,-0.1741558178,-1.1801418241,-3.99E-03,-6.38E-02,2.49E-11,1.63E-12,1.58E-13,13.5515427044,361.117422462,369.8696827484,0.2,0,887.9975879903,23.6630918798,24.2366048881,0.2,0,8.57E-02,2.2105749445,2.264151776,-0.1,0,308.2551398773,306.9746092612,98144.4497524739,1.1038687406,1018.9964270808,2.60E-02,6.68E-02,1.64E-02,2323.0240915052,5253.0148124106,1.49E-02,44.2226830584,2929.9907209054,293.0667687639,1.0374804147,-5.0554981685,0.4460497254,5.180095337,-4.95E-15,1.84E-15,5.180095337,9.4659961817,218.4028745938,281.5971254062,4.9397652627,-9999,0.52,1.4436084267,-87.9519387394,-3.09E-02,3.1597631052,0.2404091102,0,27.4999471334,-4.173223073,9.4398419539,23.5065411964,35.8489584982,50.28,75.33,0.2990898687,1.0170354311,142.3002094792,1.0243418472,39.8856057275,1.1263684485,72.54555755,1.1263684485,0.9146425138,1.1263684485,3.7658651289,1.1703543784,800000009,800000009,800000009,800000009,800000019,800001019,899999999,899999999,89999,89999,89,89,3,0,0,0,12,7,0,0,0,0,0,0,0,0,0,0,0,0,0,0,0,0,101,0,0,0,0,11,6000,6000,6000,6000,100,1.2097306422,1.3969058049,0.2805804062,0.2918882093,53.9964400606,1.16E-02,2.06E-04,0.1265072581,1.9322382281,2.44E-02,3.77E-03,98593.608720052,361.1004632617,369.8527162252,23.6617378624,24.2352116891,19.4971125766,97.4730132014,97.9164040565,97.0296190351,0.8867871777,3.00E-04,2.1878015707,44.9387491875,-999.9000244141,5.95E-06,2.15E-05,-1.16E-05,9999.990234375,9999.990234375,9999.990234375,33.8246092612
2018-06-28T180000_AIU-0962.ghg,06/28/2018,18:20:00,179.763,1,6000,6000,0.19,0,54.88,0,44.76,1,86.31,0,1.03,1,4.38,0,-9.2963680968,3.1522379974,1.1106089429,7.22E-02,5.75E-02,1.53E-11,1.01E-12,1.03E-13,13.6994520367,364.3341152773,373.2443035643,0.2,0,897.6293618186,23.8722686506,24.4560910257,0.2,0,9.24E-02,2.3736553944,2.4317057268,-0.1,0,308.0835440114,306.0592305145,98162.1459485677,1.1072815039,1019.0885731317,2.59E-02,6.65E-02,1.66E-02,2343.9816990702,4990.730418974,1.50E-02,46.9667063194,2646.7487199038,293.211778704,1.5993670479,-3.9965471811,0.36621971,4.320240873,8.82E-15,1.12E-15,4.320240873,7.3006944215,208.1893444879,291.8106555121,4.8627044867,-9999,0.42,1.1905204657,-115.090792611,-2.36E-02,1.2261284633,0.1162798558,0,25.4841459496,-3.8673174663,8.7478826387,21.7834646632,33.2211580654,46.59,69.81,0.1902963025,1.0179258417,56.7173442642,1.0233734678,40.1875286138,1.1137594716,77.4908409902,1.1137594716,0.9207406791,1.1137594716,3.7838930438,1.1612054935,800000009,800000009,800000009,800000009,800000009,800000009,899999999,899999999,89999,89999,89,89,1,0,0,1,6,7,0,0,0,0,0,0,0,0,0,0,0,0,0,0,0,0,0,0,0,0,0,0,6000,6000,6000,6000,100,0.9870362743,1.1785381,0.2154665571,9.13E-02,109.2494535776,3.11E-02,4.01E-04,5.03E-02,2.057870447,2.45E-02,3.78E-03,98611.1485598958,364.3059892187,373.2164157869,23.8708939875,24.4546941924,19.6410311705,97.4769406306,97.923219443,97.0306687826,0.892555435,2.99E-04,2.3498988655,41.2530265452,-999.9000244141,8.40E-06,2.60E-05,-1.45E-05,9999.990234375,9999.990234375,9999.990234375,32.9092305145
2018-06-28T180000_AIU-0962.ghg,06/28/2018,18:30:00,179.77,1,6000,6000,0.25,0,55.40,1,36.17,0,73.27,0,0.83,0,4.06,0,-4.4139981602,0.5908280616,-0.9506858219,1.35E-02,-4.96E-02,-1.68E-11,-1.11E-12,-1.07E-13,13.6099007593,361.5848921079,370.442694585,0.1,0,900.0147751524,23.9113973808,24.4971586767,0.2,0,8.71E-02,2.2330939299,2.2877983863,-0.1,0,307.8406855901,305.6252737732,98175.5339876302,1.108988406,1019.098572406,2.59E-02,5.37E-02,1.66E-02,2348.143902089,4870.4111173899,1.50E-02,48.2124372151,2522.267215301,293.2404425368,2.5693120519,-4.0558734193,0.3177138944,4.8116957232,-4.75E-14,-1.23E-15,4.8116957232,8.0973628139,197.646585875,302.353414125,3.7859665256,-9999,0.47,1.1714115386,-163.5775314454,-1.66E-02,1.531796875,0.1039149966,0,27.1880246907,-4.1258876389,9.3327690731,23.2399145839,35.4423360909,49.71,74.47,0.2425738442,1.0173290524,56.6729563859,1.0238670642,32.2645665677,1.1209432294,65.363630626,1.1209432294,0.7389031159,1.1209432294,3.4939632176,1.1663659034,800000009,800000009,800000009,800000009,800000009,800001019,899999999,899999999,89999,89999,89,89,5,2,0,1,21,11,0,0,0,0,0,0,0,0,0,0,0,0,0,0,0,0,0,0,0,0,0,0,6000,6000,6000,6000,100,0.9922504006,1.1174412024,0.2331314742,8.01E-02,66.4036064296,1.63E-02,2.58E-04,5.01E-02,1.7331884759,1.96E-02,3.49E-03,98623.3468736979,361.5420128402,370.3991941172,23.909995509,24.4957203728,19.6674879662,97.46474558,97.9128457896,97.0166380196,0.8962009763,2.99E-04,2.2093629838,37.0368183911,-999.9000244141,9.90E-06,2.97E-05,-1.90E-05,9999.990234375,9999.990234375,9999.990234375,32.4752737732
2018-06-28T183000_AIU-0962.ghg,06/28/2018,18:40:00,179.777,1,6000,6000,0.19,0,27.04,0,31.20,0,73.43,0,0.71,0,3.55,0,-1.4354541545,-0.6551100963,0.8098406533,-1.50E-02,3.38E-02,1.49E-11,9.77E-13,9.87E-14,13.7098472309,363.9256945574,372.8242786767,0.2,0,899.1592572161,23.8680381837,24.4516511265,0.2,0,9.09E-02,2.3287536943,2.3856955672,-0.1,0,307.8086405284,305.4842147728,98177.183687187,1.109537488,1019.0700425786,2.59E-02,4.63E-02,1.66E-02,2343.9253335704,4831.8470230936,1.50E-02,48.5099243078,2487.9216895231,293.2113902259,2.0038639623,-3.8004219968,0.3514152008,4.3107042089,2.05E-15,1.09E-15,4.3107042089,7.1547658684,202.1984811606,297.8015188394,4.6760286657,-9999,0.41,0.8984165025,-223.4604951179,-1.22E-02,0.8666230238,5.80E-02,0,23.8042626218,-3.6123886903,8.1712330532,20.3475256609,31.0312604845,43.52,65.20,0.1851164193,1.0179401778,28.4896649783,1.023365789,28.0182917209,1.1136073671,65.9417670292,1.1136073671,0.6415690465,1.1136073671,3.0785133663,1.1611078006,800000009,800000009,800000009,800000009,800000019,800000019,899999999,899999999,89999,89999,89,89,2,1,0,1,13,12,0,0,0,0,0,0,0,0,0,0,0,506,0,0,0,0,101,0,0,0,0,11,6000,6000,6000,6000,100,0.8086486042,0.7401253818,0.2480590189,3.48E-02,75.5516833093,9.06E-03,2.59E-04,2.52E-02,1.747604363,1.70E-02,3.08E-03,98625.7597376302,363.9155416765,372.8142111697,23.866677461,24.4502479357,19.6365614568,97.443097662,97.8929488856,96.9932417107,0.8996950598,3.00E-04,2.7402392095,31.4106889437,-999.9000244141,1.18E-05,3.04E-05,-1.67E-05,9999.990234375,9999.990234375,9999.990234375,32.3342147728
2018-06-28T183000_AIU-0962.ghg,06/28/2018,18:50:00,179.784,1,6000,6000,0.18,0,17.85,0,37.63,0,84.85,0,0.86,0,4.25,0,-1.1072036324,0.8510762812,-0.1303327052,1.95E-02,9.18E-03,6.02E-12,3.96E-13,4.04E-14,13.7009286512,363.5491293396,372.4599881748,0.2,0,901.6268459407,23.9243385011,24.5107417845,0.2,0,9.19E-02,2.3547360635,2.4124523912,-0.1,0,307.7305892792,305.3754576823,98182.5533971354,1.1099695022,1019.0989766802,2.59E-02,5.58E-02,1.67E-02,2349.5827240562,4802.2951623269,1.50E-02,48.9262455687,2452.7124382707,293.2503409142,2.4166994652,-3.4240333881,0.2922112944,4.2011698833,-1.17E-14,4.40E-16,4.2011698833,6.5831795656,194.7853699113,305.2146300887,3.9884135761,-9999,0.41,0.9119590199,-328.061155499,-8.29E-03,0.4744455611,3.87E-02,0,25.762433844,-3.9095487279,8.8434098675,22.0213409698,33.583934442,47.10,70.57,0.1813563117,1.0181135455,19.8338179504,1.0232835613,33.8422506324,1.112021523,76.2988948815,1.112021523,0.7748449375,1.112021523,3.6935501398,1.15999328,800000009,800000009,800000009,800000009,800000009,800001119,899999999,899999999,89999,89999,89,89,3,0,0,3,8,7,0,0,0,0,0,0,0,0,0,0,0,0,0,0,0,0,0,0,0,0,0,0,6000,6000,6000,6000,100,0.6643481566,0.9601735088,0.1993963744,2.26E-02,94.9363620826,1.53E-02,3.23E-04,1.75E-02,2.0213775961,2.05E-02,3.69E-03,98630.2645084635,363.5061833025,372.4165662083,23.9226084368,24.5089563252,19.6725359674,97.4298521207,97.8805677897,96.9791362775,0.9014305694,2.99E-04,2.3309502635,30.0998444691,-999.9000244141,1.08E-05,2.97E-05,-1.53E-05,9999.990234375,9999.990234375,9999.990234375,32.2254576823
2018-06-28T183000_AIU-0962.ghg,06/28/2018,19:00:00,179.791,0,6000,6000,0.16,0,10.98,0,38.97,0,77.53,0,0.89,0,3.84,0,-0.9965012529,-2.0410563605,0.6549586762,-4.67E-02,2.95E-02,-2.03E-11,-1.32E-12,-1.41E-13,13.7747182591,365.4407736236,374.3462392189,0.2,0,896.7035288841,23.7893817603,24.3691077681,0.2,0,9.52E-02,2.4381955559,2.4976122062,-0.1,0,307.7070563939,305.2776082916,98187.5362089843,1.1104388071,1019.0197074756,2.58E-02,5.78E-02,1.66E-02,2336.4473421756,4775.8413871532,1.49E-02,48.9222139676,2439.3940449776,293.1597782425,2.8464385569,-2.5302414507,0.3381322716,3.8234366335,1.01E-14,-1.48E-15,3.8234366335,7.0430740872,181.6343696665,318.3656303335,5.0736802633,-9999,0.38,1.0956146921,-437.9953960297,-6.21E-03,0.2816756582,2.54E-02,0,23.1552271196,-3.5138950488,7.9484401681,19.7927398754,30.1851771568,42.34,63.43,0.1589400716,1.0188478135,13.1529434669,1.0230950659,35.216566411,1.1066172709,70.0632031047,1.1066172709,0.8062338381,1.1066172709,3.3477617905,1.1562731355,800000009,800000009,800000009,800000009,800000009,800000009,899999999,899999999,89999,89999,89,89,4,1,0,2,3,5,0,0,0,0,0,0,0,0,0,0,0,0,0,0,0,0,0,0,0,0,0,0,6000,6000,6000,6000,100,0.6706102877,1.2923789091,0.2282401874,1.45E-02,87.8391845281,1.24E-02,2.85E-04,1.16E-02,1.8552306394,2.13E-02,3.35E-03,98635.5083300781,365.4239497679,374.3296540258,23.7881092707,24.3678010328,19.5794000654,97.4255385602,97.8770500743,96.9740256869,0.9030214284,2.99E-04,2.4141436383,26.4493351758,-999.9000244141,1.11E-05,2.85E-05,-1.41E-05,9999.990234375,9999.990234375,9999.990234375,32.1276082916
2018-06-28T190000_AIU-0962.ghg,06/28/2018,19:10:00,179.798,0,6000,6000,0.21,0,29.01,0,37.57,0,75.16,0,0.86,0,3.92,0,-1.4398048047,-0.5478293801,-0.4945857737,-1.25E-02,-2.39E-02,-4.18E-11,-2.72E-12,-2.82E-13,13.7250697006,364.0129897895,372.8698343779,0.2,0,895.6110664825,23.7531807933,24.3311223412,0.2,0,9.26E-02,2.3706221187,2.4283020155,-0.1,0,307.5952833862,305.1362948148,98188.3615244638,1.1109777527,1018.9952631133,2.58E-02,5.57E-02,1.66E-02,2332.9115140955,4737.8603117423,1.49E-02,49.2397698664,2404.9487976468,293.1353240659,4.1509857115,-1.5595750979,0.3343003445,4.4468768347,3.30E-15,-3.04E-15,4.4468768347,7.7038470438,160.5918014167,339.4081985833,4.3113598689,-9999,0.44,0.9295082797,-247.3623354038,-1.10E-02,0.7721655122,5.87E-02,0,23.4270358096,-3.5551430662,8.0417432956,20.0250778555,30.5395072361,42.83,64.17,0.2078991205,1.0177459265,30.7979224978,1.0234828003,33.6697428836,1.1157980264,67.3577170209,1.1157980264,0.770714999,1.1157980264,3.3927468324,1.1625132891,800000009,800000009,800000009,800000009,800000019,800000019,899999999,899999999,89999,89999,89,89,2,2,2,7,1,1,0,0,0,0,0,0,0,0,0,0,0,0,0,0,0,0,101,0,0,0,0,11,6000,6000,6000,6000,100,0.9559189355,0.6135900393,0.2895075847,1.25E-02,60.1442643758,8.90E-03,2.19E-04,2.72E-02,1.7826842898,2.04E-02,3.39E-03,98635.3505579427,363.985553931,372.8420499552,23.7517746922,24.3296719696,19.5523991887,97.4192615267,97.8716510709,96.9668768044,0.904769444,2.99E-04,2.3537101972,29.1018579634,-999.9000244141,9.10E-06,2.39E-05,-1.69E-05,9999.990234375,9999.990234375,9999.990234375,31.9862948148
2018-06-28T190000_AIU-0962.ghg,06/28/2018,19:20:00,179.805,0,6000,6000,0.19,0,22.03,0,39.55,0,92.47,0,0.91,0,4.76,0,-0.7993402419,-3.0871233308,2.0531420702,-7.07E-02,0.105980443,-5.81E-12,-3.70E-13,-4.35E-14,13.9519109525,369.9385397658,378.860418194,0.2,0,888.1394976595,23.5492492742,24.1171910173,0.2,0,0.1044049018,2.6703513646,2.7347527386,-0.1,0,307.5406045125,305.057858551,98188.2543300781,1.1113486623,1018.8774219261,2.58E-02,5.87E-02,1.64E-02,2312.879916201,4716.8922474848,1.48E-02,49.0339781969,2404.0123312838,292.9961669912,3.3579273168,-1.3723737473,0.3257350767,3.6421407039,-5.81E-15,-4.17E-16,3.6421407039,6.8893480846,162.2296715701,337.7703284299,5.1311074181,-9999,0.41,0.7734905468,-268.6498541774,-1.01E-02,0.5571192187,4.75E-02,0,24.8562832015,-3.772036872,8.5323576749,21.2467770295,32.402675561,45.45,68.09,0.1826517071,1.0192883819,24.0794422829,1.0230661488,35.8164960033,1.1042323524,83.7409400935,1.1042323524,0.8197922472,1.1042323524,4.1513410084,1.1545724506,800000009,800000009,800000009,800000009,800000009,800000009,899999999,899999999,89999,89999,89,89,0,3,0,2,2,1,0,0,0,0,0,0,0,0,0,0,0,0,0,0,0,0,0,0,0,0,0,0,6000,6000,6000,6000,100,0.8041838013,0.5231900569,0.2196072353,1.00E-02,111.2807428896,4.08E-02,4.18E-04,2.13E-02,2.2152512818,2.17E-02,4.15E-03,98635.8825097656,369.9194420347,378.8416333455,23.5479206756,24.1158529875,19.4104651097,97.4109945164,97.8643926169,96.9576244125,0.9067572826,2.99E-04,2.6443711954,25.5689013022,-999.9000244141,9.75E-06,2.57E-05,-1.56E-05,9999.990234375,9999.990234375,9999.990234375,31.907858551
2018-06-28T190000_AIU-0962.ghg,06/28/2018,19:30:00,179.812,0,6000,6000,0.23,0,19.30,0,61.40,1,85.27,0,1.41,1,4.24,0,-1.4066426953,-5.7945403477,-2.005736586,-0.1326114836,-0.1092193091,4.17E-12,2.65E-13,2.81E-14,13.7363630377,364.1526515782,372.7889445389,0.2,0,873.8816606496,23.1667089039,23.7161336689,0.2,0,9.24E-02,2.361613929,2.4176222806,-0.1,0,307.3684779994,304.9198880692,98192.1108639322,1.1120574771,1018.6567567121,2.58E-02,9.11E-02,1.62E-02,2275.3982368533,4680.2045936427,1.45E-02,48.6174950545,2404.8063567894,292.7329248328,4.1560853467,-1.8172891664,0.3377777912,4.5485908982,-3.59E-14,3.04E-16,4.5485908982,8.2877988515,163.6178266581,336.3821733419,4.2586976719,-9999,0.46,1.3695612466,-427.0745180527,-6.37E-03,0.3143288876,3.73E-02,0,24.2183492899,-3.6752279397,8.3133756065,20.7014807167,31.5710642779,44.28,66.34,0.2282962337,1.0176153396,22.6435849493,1.023580119,54.9583277349,1.1172885729,76.3182860116,1.1172885729,1.2577538406,1.1172885729,3.6724043691,1.1635755767,800000009,800000009,800000009,800000009,800000009,800000019,899999999,899999999,89999,89999,89,89,0,3,0,7,4,3,0,0,0,0,0,0,0,0,0,0,0,0,0,0,0,0,0,0,0,0,0,0,6000,6000,6000,6000,100,1.2947140084,1.1521544956,0.2922539893,1.27E-02,76.385496122,5.69E-02,2.73E-04,2.00E-02,2.0171123778,3.32E-02,3.67E-03,98638.738048177,364.1366025207,372.7736708491,23.1653385751,23.714767249,19.144836141,97.4067087879,97.8612914441,96.9521092593,0.9091826694,2.99E-04,2.3387058478,21.7382490878,-999.9000244141,9.10E-06,2.39E-05,-1.42E-05,9999.990234375,9999.990234375,9999.990234375,31.7698880692
2018-06-28T193000_AIU-0962.ghg,06/28/2018,19:40:00,179.819,0,6000,6000,0.20,0,20.18,0,51.51,0,93.12,0,1.18,0,4.41,0,-0.2001710174,-5.0313448201,1.27599576,-0.1151430931,5.19E-02,-2.75E-11,-1.71E-12,-1.95E-13,13.877662629,367.8329432794,376.4285412147,0.2,0,861.5078744577,22.8346073536,23.3682112828,0.2,0,9.82E-02,2.5083802909,2.5669966516,-0.1,0,307.3511259613,304.9002560093,98200.0621814873,1.1123600418,1018.4681176481,2.58E-02,7.64E-02,1.59E-02,2242.9613513105,4675.0044335655,1.43E-02,47.9777374157,2432.043082255,292.5020276277,3.3144432287,-1.6141631715,0.3431543947,3.7025412353,-1.32E-14,-1.98E-15,3.7025412353,7.18988016,165.9664918065,334.0335081935,5.3178490598,-9999,0.42,0.7450823402,-319.2623550892,-8.52E-03,0.3917627385,4.23E-02,0,24.8218430987,-3.7668104535,8.5205355021,21.2173381476,32.3577794086,45.38,67.99,0.1934664763,1.0191342979,22.9609095927,1.0230707886,46.6224835087,1.1047783997,84.2884236736,1.1047783997,1.0669626415,1.1047783997,3.8422972897,1.1551318189,800000009,800000009,800000009,800000009,800000019,800000019,899999999,899999999,89999,89999,89,89,0,1,0,7,2,1,0,0,0,0,0,0,0,0,0,0,0,0,0,0,0,0,101,0,0,0,0,16,6000,6000,6000,6000,100,0.7177773115,0.5392170151,0.2331703537,5.90E-03,106.6414318016,2.34E-02,3.44E-04,2.03E-02,2.2266841772,2.82E-02,3.84E-03,98647.8675917968,367.8048838774,376.4006567329,22.833252468,23.3668293188,18.9119717093,97.4008105647,97.8566729825,96.9449674123,0.9117287109,2.98E-04,2.4894838877,26.3271263453,-999.9000244141,8.95E-06,2.41E-05,-1.29E-05,9999.990234375,9999.990234375,9999.990234375,31.7502560093
2018-06-28T193000_AIU-0962.ghg,06/28/2018,19:50:00,179.826,0,6000,6000,0.17,0,16.94,0,37.36,0,74.39,0,0.85,0,3.68,0,-0.6536145679,-6.3616120667,-0.3602077285,-0.1455773432,-1.43E-02,6.62E-12,4.04E-13,4.62E-14,13.8394410642,366.7943551812,375.204513217,0.1,0,845.7305332421,22.4148637332,22.9288098822,0.2,0,9.66E-02,2.4680737284,2.5246637217,-0.1,0,307.2620333964,304.8361680806,98211.6853424479,1.1129037374,1018.2288022563,2.58E-02,5.54E-02,1.57E-02,2201.9920466165,4658.0636631055,1.41E-02,47.2726910982,2456.0716164889,292.2061735112,3.8165590148,-1.2458721334,0.2788409837,4.0244344174,-2.98E-15,4.78E-16,4.0244344174,8.7694500046,158.0786806312,341.9213193688,3.9730358407,-9999,0.39,0.8520265974,-305.0603054854,-8.92E-03,0.453535563,3.82E-02,0,23.1267855896,-3.5095789369,7.9386771112,19.7684284834,30.14810075,42.28,63.35,0.1672411238,1.0184290333,18.9109217394,1.0231758199,33.6764830994,1.109324325,67.0578376241,1.109324325,0.7706431778,1.109324325,3.200377931,1.1582257665,800000009,800000009,800000009,800000009,800000009,800000009,899999999,899999999,89999,89999,89,89,2,0,0,2,1,0,0,0,0,0,0,0,0,0,0,0,0,0,0,0,0,0,0,0,0,0,0,0,6000,6000,6000,6000,100,0.9304099063,0.5333759709,0.2402673176,7.14E-03,103.2736257123,5.35E-02,3.35E-04,1.67E-02,1.7701536969,2.03E-02,3.20E-03,98659.6474251302,366.7611206711,375.1717176073,22.4134908494,22.9274400595,18.6133047714,97.4011855265,97.8580629209,96.9442982616,0.9137750601,2.98E-04,2.4449966474,22.4273692355,-999.9000244141,8.85E-06,2.34E-05,-9.24E-06,9999.990234375,9999.990234375,9999.990234375,31.6861680806
2018-06-28T193000_AIU-0962.ghg,06/28/2018,20:00:00,179.833,0,6000,6000,0.15,0,9.37,0,44.27,0,91.21,0,1.01,0,4.39,0,-0.4974644665,-4.7476932042,1.3667980988,-0.1086396997,6.36E-02,-1.51E-11,-9.01E-13,-1.12E-13,13.9903332654,370.7341572364,379.1132071242,0.2,0,834.048529164,22.1017092793,22.6012352093,0.2,0,0.1037133785,2.6477883202,2.7076316068,-0.1,0,307.2060737076,304.7874016978,98223.1731367187,1.1133449459,1018.0503781618,2.58E-02,6.56E-02,1.54E-02,2171.4823381109,4645.2086733296,1.39E-02,46.746712383,2473.7263352187,291.9827004583,3.2536256983,-1.0975432938,0.2396179578,3.4421066562,-7.85E-15,-1.08E-15,3.4421066562,6.6171375494,158.6407582668,341.3592417332,3.9918026967,-9999,0.37,0.7683329458,-453.0835516459,-6.00E-03,0.2116966321,2.26E-02,0,24.9717121123,-3.7895536545,8.5719806847,21.3454439264,32.5531488043,45.66,68.40,0.1465453683,1.0198549633,11.8881746837,1.0230903539,40.2010125184,1.1011890464,82.8246476028,1.1011890464,0.9199048337,1.1011890464,3.8417398385,1.1527759167,800000009,800000009,800000009,800000009,800000009,800000009,899999999,899999999,89999,89999,89,89,0,1,0,3,3,4,0,0,0,0,0,0,0,0,0,0,0,0,0,0,0,0,0,0,0,0,0,0,6000,6000,6000,6000,100,0.8982089229,0.4645060979,0.1739508707,3.20E-03,168.0706388056,2.27E-02,5.15E-04,1.05E-02,2.1850511828,2.43E-02,3.84E-03,98671.6390859374,370.7167819139,379.0969470623,22.1004166449,22.5999194632,18.3873323212,97.4002911441,97.8583589083,96.9422394663,0.9161264888,2.99E-04,2.623573039,19.0324766301,-891.077571757,9.10E-06,2.17E-05,-7.83E-06,9999.990234375,9999.990234375,9999.990234375,31.6374016978
2018-06-28T200000_AIU-0962.ghg,06/28/2018,20:10:00,179.84,0,6000,6000,0.12,0,6.37,0,38.60,0,71.19,0,0.88,0,3.09,0,4.48E-02,-3.1200083629,-1.061053585,-7.14E-02,-6.14E-02,8.17E-12,4.87E-13,5.71E-14,13.8738484821,367.673631848,375.9043500669,0.2,0,826.2183654614,21.8957780548,22.3859355307,0.2,0,9.69E-02,2.4742635737,2.5296522786,-0.1,0,307.1745198898,304.7917962676,98159.3307744162,1.1126926275,1017.9339781725,2.58E-02,5.72E-02,1.53E-02,2149.8514408864,4646.3658329874,1.37E-02,46.2695258652,2496.514392101,291.822587739,3.3437886303,-1.1216735985,0.2321128684,3.5345368083,7.91E-16,5.89E-16,3.5345368083,7.011832967,158.5440233025,341.4559766975,3.7653208515,-9999,0.33,0.5897794899,-472.7621084916,-5.75E-03,0.1648981377,1.72E-02,0,24.1953043747,-3.6717307849,8.3054650329,20.6817822698,31.5410229034,44.24,66.27,0.1164874542,1.019581968,8.5835597325,1.0230712894,35.0073372751,1.102616382,64.5673250697,1.102616382,0.8010633329,1.102616382,2.700408747,1.1535946355,800000009,800000009,800000009,800000009,800000019,800000019,899999999,899999999,89999,89999,89,89,1,5,0,3,2,1,0,0,0,0,0,0,0,0,0,0,0,0,0,0,0,0,101,0,5998,5998,0,21,6000,6000,6000,6000,100,0.6687963516,0.3610822051,0.1496804231,3.91E-03,110.5533354169,1.67E-02,3.04E-04,7.58E-03,1.7041663033,2.11E-02,2.70E-03,98680.1306048177,367.6320632344,375.8627086638,21.8943097522,22.384429966,18.2351223315,97.3994465122,97.8581930962,96.9406946074,0.9174885999,2.99E-04,2.4561498224,17.5038886702,-894.9105218506,9.66E-06,2.32E-05,-6.71E-06,9999.990234375,9999.990234375,9999.990234375,31.6417962676
2018-06-28T200000_AIU-0962.ghg,06/28/2018,20:20:00,179.847,0,6000,6000,0.22,0,9.92,0,45.36,0,77.51,0,1.04,0,3.53,0,-0.5540788918,-1.3854481093,-1.0941052546,-3.17E-02,-3.89E-02,-6.19E-12,-3.70E-13,-4.17E-14,13.7564425788,364.5209301168,372.6462696598,0.2,0,822.8646588073,21.8044301113,22.2904609083,0.2,0,9.26E-02,2.364384628,2.4170878511,-0.1,0,307.0821157049,304.7374953893,98240.1681647135,1.1138461924,1017.8810214865,2.58E-02,6.73E-02,1.52E-02,2142.6454687066,4632.0851021894,1.37E-02,46.2566084482,2489.4396334828,291.7689351128,3.6895865787,-1.4741466031,0.3074509989,3.985057521,-4.87E-15,-4.50E-16,3.985057521,7.166909086,161.7788080955,338.2211919045,4.4248212331,-9999,0.44,0.8266197939,-751.5813517256,-3.62E-03,0.2187259543,1.98E-02,0,25.4365542257,-3.8600952386,8.73154594,21.7427839734,33.1591174466,46.51,69.67,0.2136853408,1.0185056772,12.4730239605,1.0231563128,40.9052431924,1.1089570685,69.8925113027,1.1089570685,0.9359738339,1.1089570685,3.0722129684,1.1578381174,800000009,800000009,800000009,800000009,800000009,800000009,899999999,899999999,89999,89999,89,89,1,0,0,2,2,1,0,0,0,0,0,0,0,0,0,0,0,0,0,0,0,0,0,0,6000,6000,0,0,6000,6000,6000,6000,100,0.9366758273,0.4747762306,0.24178753,3.79E-03,74.8541666101,1.25E-02,2.03E-04,1.10E-02,1.8426988602,2.47E-02,3.07E-03,98688.3199921875,364.5004845365,372.6260584812,21.8032182571,22.2892196416,18.16658623,97.3965511068,97.8562251752,96.9368807818,0.9193474658,3.00E-04,2.3431074019,15.572660957,-999.9000244141,9.45E-06,2.26E-05,-6.46E-06,9999.990234375,9999.990234375,9999.990234375,31.5874953893
2018-06-28T200000_AIU-0962.ghg,06/28/2018,20:30:00,179.854,0,6000,6000,0.17,0,1.45,1,35.59,0,71.27,0,0.81,0,3.41,0,-0.5013207714,-1.335357017,-7.93E-02,-3.06E-02,5.88E-03,3.54E-11,2.11E-12,2.41E-13,13.7507141136,364.2924454988,372.3791837462,0.2,0,819.7153695763,21.7164078991,22.1984791266,0.2,0,9.33E-02,2.3809970798,2.4338515938,-0.1,0,307.0134508133,304.6883745931,98245.3185839843,1.1141215569,1017.8299235362,2.58E-02,5.28E-02,1.52E-02,2134.1077108385,4619.199546509,1.36E-02,46.2008122695,2485.0918356706,291.7051613938,3.6021475282,-1.7372093143,0.2996165294,4.0103781718,-1.12E-15,2.58E-15,4.0103781718,7.9508584705,165.7466397737,334.2533602263,4.2845766316,-9999,0.39,0.8935175892,-3433.7129709212,-7.92E-04,4.07E-02,3.31E-03,0,24.7493629971,-3.7558113185,8.4956554287,21.1553832469,32.263294276,45.25,67.79,0.1632249705,1.018456119,3.5493516529,1.0231686214,32.0851972663,1.109319656,64.2495935224,1.109319656,0.7341226038,1.109319656,2.9685845281,1.1580875737,800000009,800000009,800000009,800000009,800000009,800001019,899999999,899999999,89999,89999,89,89,4,1,0,1,1,0,0,0,0,0,0,0,0,0,0,0,0,0,0,0,0,0,0,0,6000,6000,0,0,6000,6000,6000,6000,100,0.8947922779,0.6945218467,0.1977210539,4.05E-03,82.0185492794,1.40E-02,2.58E-04,3.13E-03,1.6934104668,1.93E-02,2.97E-03,98693.2318216145,364.2425749455,372.3306175046,21.7150949791,22.1971344895,18.1013410072,97.3925635509,97.8532194913,96.9319105339,0.9213099377,2.98E-04,2.3589015125,14.7983457997,-999.9000244141,9.63E-06,2.47E-05,-6.88E-06,9999.990234375,9999.990234375,9999.990234375,31.5383745931
2018-06-28T203000_AIU-0962.ghg,06/28/2018,20:40:00,179.86,0,6000,6000,0.14,0,0.11,1,36.56,0,70.86,0,0.84,0,3.37,0,-0.7943585043,-1.9899278905,0.6216325478,-4.55E-02,2.59E-02,-1.56E-11,-9.20E-13,-1.09E-13,13.8228860924,366.0842273641,374.1605509526,0.2,0,815.0296836938,21.5851819974,22.0613809196,0.2,0,9.62E-02,2.4541874917,2.5083302568,-0.1,0,306.929258049,304.6104996858,98170.3778593299,1.1136120391,1017.7534420628,2.58E-02,5.42E-02,1.51E-02,2119.5938789943,4598.8348973197,1.35E-02,46.0898015763,2479.2410183255,291.5962334678,3.1870685029,-1.3897429442,0.2529698652,3.4860844576,1.38E-14,-1.13E-15,3.4860844576,6.6997585325,163.5599369768,336.4400630232,4.161361111,-9999,0.35,0.6143185811,-33264.4295905966,-8.18E-05,3.14E-03,2.86E-04,0,24.4778887993,-3.7146140616,8.4024671215,20.9233311857,31.9094002411,44.75,67.05,0.1366346544,1.0197224187,2.3077024092,1.0230795143,33.1842043531,1.101842685,64.3087110092,1.101842685,0.7592105679,1.101842685,2.9531682368,1.153162989,800000009,800000009,800000009,800000009,800000019,800000019,899999999,899999999,89999,89999,89,89,0,4,0,1,1,2,0,0,0,0,0,0,0,0,0,0,0,0,0,0,0,0,101,0,6000,6000,0,6,6000,6000,6000,6000,100,0.6062962548,0.4519130217,0.1704278856,4.37E-03,96.9944349852,1.54E-02,2.86E-04,2.04E-03,1.6956014528,2.00E-02,2.95E-03,98701.3111204427,366.052875978,374.1292880225,21.5838650536,22.0600327992,18.0045243112,97.39203335,97.8538368638,96.9302301966,0.9236044229,2.98E-04,2.447726454,14.8839354414,-999.9000244141,1.19E-05,2.59E-05,-4.35E-06,9999.990234375,9999.990234375,9999.990234375,31.4604996858
2018-06-28T203000_AIU-0962.ghg,06/28/2018,20:50:00,179.867,0,6000,6000,0.16,0,-2.46,2,38.68,0,63.76,0,0.88,0,3.16,0,-0.5985691903,-4.7617521649,-0.7554770615,-0.1089363323,-3.39E-02,-1.24E-11,-7.25E-13,-8.35E-14,13.7444833218,363.9090249945,371.8181654287,0.1,0,803.4045288547,21.2715277779,21.7338397539,0.2,0,9.25E-02,2.3586178709,2.4098796938,-0.1,0,306.8619952749,304.5518795802,98258.4442910156,1.1149588841,1017.5749344532,2.58E-02,5.73E-02,1.49E-02,2090.6678762873,4583.5569504704,1.33E-02,45.6123464567,2492.8890741831,291.3771753187,3.9811849805,-1.2121373891,0.2577900123,4.1696002913,2.55E-15,-9.02E-16,4.1696002913,7.6709616852,156.9337350512,343.0662649488,3.5446337067,-9999,0.38,0.8392149477,1986.8414262107,1.37E-03,-6.37E-02,-5.65E-03,0,25.5711847396,-3.8805259385,8.7777602388,21.8578641118,33.3346219188,46.75,70.04,0.1625661716,1.0117292615,-0.1455939726,1.0187893121,34.6087022257,1.1175346698,57.053838075,1.1175346698,0.7917558398,1.1175346698,2.7183759677,1.1759720244,800000009,800000009,800000009,800000009,800000009,800000009,899999999,899999999,89999,89999,89,89,2,2,0,2,2,3,0,0,0,0,0,0,0,0,0,0,0,0,0,0,0,0,0,0,6000,6000,0,0,6000,6000,6000,6000,100,1.0235855804,0.4746980967,0.1801462182,6.84E-03,75.1341208564,2.75E-02,2.34E-04,-1.28E-04,1.5021959788,2.08E-02,2.72E-03,98707.0428417968,363.8894570935,371.7988170326,21.2702979033,21.7325951877,17.7720985254,97.3889614601,97.851788386,96.9261385905,0.9256468393,2.99E-04,2.3371924857,14.5094065012,-999.9000244141,1.16E-05,2.52E-05,-2.86E-06,9999.990234375,9999.990234375,9999.990234375,31.4018795802
2018-06-28T203000_AIU-0962.ghg,06/28/2018,21:00:00,179.874,0,6000,6000,0.13,0,-1.34,1,53.98,0,71.24,0,1.23,0,3.29,0,-1.2464835584,-5.4876089334,1.0027781921,-0.125527055,4.45E-02,-1.94E-11,-1.10E-12,-1.36E-13,13.8580993435,366.7950078727,374.6285900343,0.2,0,790.0230072721,20.9102625107,21.3568396339,0.2,0,9.75E-02,2.4840916416,2.5371439884,-0.1,0,306.7144211858,304.4298520203,98261.9439733072,1.1155991424,1017.3677017968,2.58E-02,8.00E-02,1.46E-02,2055.2341902719,4551.8946809071,1.31E-02,45.1511806478,2496.6604906352,291.1051820024,3.6041774142,-1.0909078726,0.2730331005,3.7755425959,7.62E-16,-1.40E-15,3.7755425959,7.3862360446,156.8399479235,343.1600520765,4.1470361472,-9999,0.34,0.7624774492,2560.6510158341,1.06E-03,-2.48E-02,-3.46E-03,0,22.5629176755,-3.4240098056,7.745119503,19.2864426712,29.4130419751,41.25,61.80,0.1274219708,1.0189581525,1.9059852841,1.0230831445,48.80849679,1.1058605206,64.4185321034,1.1058605206,1.1164765812,1.1058605206,2.8776260984,1.155817586,800000009,800000009,800000009,800000009,800000009,800000009,899999999,899999999,89999,89999,89,89,1,1,1,3,1,0,0,0,0,0,0,0,0,0,0,0,0,0,0,0,0,0,0,0,6000,6000,0,0,6000,6000,6000,6000,100,0.8404338116,0.4901771551,0.1943439317,5.66E-03,102.7978473473,2.96E-02,3.02E-04,1.68E-03,1.6947385908,2.94E-02,2.88E-03,98711.4729127604,366.7714900684,374.6056414913,20.9089682602,21.3555301699,17.5001643155,97.3858606841,97.849866066,96.9218583794,0.9280042257,3.00E-04,2.462532129,14.2300442382,-897.9102219238,1.05E-05,2.35E-05,-8.04E-07,9999.990234375,9999.990234375,9999.990234375,31.2798520203
2018-06-28T210000_AIU-0962.ghg,06/28/2018,21:10:00,179.881,0,6000,6000,0.18,0,-7.04,0,38.78,0,65.90,0,0.89,0,3.28,0,-1.6160498867,-4.4348675047,-1.3370535869,-0.1014303007,-5.54E-02,-9.85E-12,-5.60E-13,-6.57E-14,13.7188753668,362.9469384232,370.5878460743,0.2,0,779.3439208999,20.618343888,21.0524097111,0.2,0,9.14E-02,2.3278198667,2.3768260843,-0.1,0,306.5539031652,304.2716342521,98209.6953515691,1.1157098607,1017.1985399063,2.58E-02,5.75E-02,1.44E-02,2025.4644355942,4511.1251652313,1.29E-02,44.8993180505,2485.6607296371,290.8734670992,4.5896058832,-0.9828706298,0.2924409769,4.7027692441,3.37E-15,-7.18E-16,4.7027692441,7.8267659584,152.0874003376,347.9125996624,3.5652294593,-9999,0.40,0.7694629626,776.0233645591,3.51E-03,-0.1814434577,-1.56E-02,0,24.2351429484,-3.6777764422,8.3191403261,20.7158356834,31.5929565079,44.31,66.38,0.1750820414,1.0117983549,-4.677931612,1.0200657115,34.3329073853,1.1294297169,58.3463074431,1.1294297169,0.7852313779,1.1294297169,2.7971763515,1.1859959784,800000009,800000009,800000009,800000009,800000019,800000019,899999999,899999999,89999,89999,89,89,0,3,0,1,1,3,0,0,0,0,0,0,0,0,0,0,0,0,0,0,0,0,101,0,6000,6000,0,26,6000,6000,6000,6000,100,0.8717436672,0.4454458685,0.2217363896,5.59E-03,59.0564298576,1.07E-02,1.89E-04,-4.12E-03,1.5345497989,2.07E-02,2.80E-03,98718.4065436197,362.9088899079,370.5494292038,20.6169899549,21.0510205062,17.2787880278,97.3804018771,97.8457700183,96.9150451876,0.9307320057,2.97E-04,2.3157678425,13.363594279,-896.4103718872,1.25E-05,2.36E-05,1.53E-06,9999.990234375,9999.990234375,9999.990234375,31.1216342521
2018-06-28T210000_AIU-0962.ghg,06/28/2018,21:20:00,179.888,0,6000,6000,0.19,0,-11.45,0,37.59,0,75.53,0,0.86,0,3.63,0,-1.771813933,0.7306605871,0.26401786,1.67E-02,6.09E-03,1.18E-12,6.69E-14,7.89E-15,13.7566169138,363.7057996984,371.3808938785,0.1,0,781.6738316973,20.6663678898,21.1024794944,0.2,0,9.22E-02,2.3449766818,2.3944615041,-0.1,0,306.3951809082,304.0983927129,98281.5562714843,1.1171418622,1017.220826528,2.57E-02,5.57E-02,1.45E-02,2031.6676258805,4466.8485007581,1.30E-02,45.4832445187,2435.1808748775,290.9219953287,4.6139328241,-0.5818393194,0.2617210124,4.6578332932,-2.11E-15,8.55E-17,4.6578332932,8.1599403944,147.1873373507,352.8126626493,3.2211138686,-9999,0.41,0.9412865716,519.0451866092,5.24E-03,-0.304630525,-2.46E-02,0,25.7268306503,-3.9041458059,8.8311884432,21.9909078952,33.5375220831,47.04,70.47,0.1854370224,1.0118315081,-9.105486804,1.0201196531,33.2740690703,1.1296601465,66.8621532199,1.1296601465,0.760885826,1.1296601465,3.0906574268,1.1868674728,800000009,800000009,800000009,800000009,800000009,800000009,899999999,899999999,89999,89999,89,89,2,3,0,9,1,1,0,0,0,0,0,0,0,0,0,0,0,0,0,0,0,0,0,0,6000,6000,0,0,6000,6000,6000,6000,100,1.1719290652,0.5086227434,0.2020213346,9.43E-03,81.8323751373,1.27E-02,2.48E-04,-8.01E-03,1.7563225103,2.00E-02,3.09E-03,98730.6419960937,363.6845013821,371.3597434849,20.6651256157,21.1012093871,17.3174264065,97.3732944527,97.8399312935,96.9066693637,0.9332792783,2.97E-04,2.3246389968,13.1792706812,-906.7426721395,1.14E-05,2.59E-05,2.41E-06,9999.990234375,9999.990234375,9999.990234375,30.9483927129
2018-06-28T210000_AIU-0962.ghg,06/28/2018,21:30:00,179.895,0,6000,6000,0.17,0,-14.71,0,32.61,0,59.65,0,0.75,0,2.71,0,-2.0247848407,1.536955149,0.3468919616,3.51E-02,1.69E-02,2.45E-12,1.40E-13,1.67E-14,13.8052859001,364.7021224951,372.4366227452,0.2,0,786.1166454976,20.7672924137,21.2077193223,0.2,0,9.41E-02,2.3925503925,2.4432909297,-0.1,0,306.2245221532,303.9005662715,98290.7531770833,1.1179306806,1017.2721553609,2.57E-02,4.83E-02,1.46E-02,2041.7803518848,4416.7506497421,1.30E-02,46.2281100701,2374.9702978573,291.000830294,4.4255141272,-0.5451566159,0.2779256945,4.4676183495,3.25E-14,1.78E-16,4.4676183495,8.0951054226,147.0225972548,352.9774027452,3.5666112949,-9999,0.39,0.7975426072,340.8883348199,7.98E-03,-0.451091097,-3.34E-02,0,24.7601378133,-3.7574464384,8.4993540744,21.1645933977,32.2773403371,45.27,67.82,0.1656708167,1.0118580094,-12.6125587732,1.0199231107,28.9210029939,1.1274787814,52.9051640752,1.1274787814,0.6612155131,1.1274787814,2.3134487476,1.1861370605,800000009,800000009,800000009,800000009,800000009,800000009,899999999,899999999,89999,89999,89,89,0,8,0,2,2,0,0,0,0,0,0,0,0,0,0,0,0,0,0,0,0,0,0,0,6000,6000,0,0,6000,6000,6000,6000,100,0.7842215054,0.6123755037,0.1984882052,6.68E-03,60.1670757316,8.67E-03,1.72E-04,-1.11E-02,1.3888121002,1.74E-02,2.31E-03,98740.3854257812,364.6790612129,372.4134972837,20.766073841,21.2064691757,17.3956967389,97.3651840998,97.8331427294,96.8972211164,0.9359171116,2.98E-04,2.3718775422,13.0494385133,-876.9123214111,1.12E-05,2.31E-05,3.39E-06,9999.990234375,9999.990234375,9999.990234375,30.7505662715
2018-06-28T213000_AIU-0962.ghg,06/28/2018,21:40:00,179.902,0,6000,6000,0.15,0,-18.32,0,37.56,0,68.69,0,0.86,0,3.05,0,-1.5155666263,0.8808963483,-0.3235471023,2.01E-02,-1.12E-02,1.29E-11,7.38E-13,8.70E-14,13.7784794803,363.7728227805,371.5095576056,0.2,0,788.7852200761,20.8251299779,21.2680396684,0.2,0,9.30E-02,2.3610020518,2.4112159371,-0.1,0,306.0941184692,303.752488313,98240.0421178377,1.1178739706,1017.3005089559,2.57E-02,5.56E-02,1.46E-02,2046.4104268691,4379.5713559981,1.31E-02,46.7262720601,2333.1609291289,291.0368103354,4.0656298523,-1.1911300485,0.2967018234,4.2469010891,5.68E-16,9.36E-16,4.2469010891,6.8537901429,156.3292931543,343.6707068457,4.0061261754,-9999,0.37,0.7215368132,230.9289163815,1.18E-02,-0.4878475939,-4.40E-02,0,21.9438075546,-3.3300574562,7.5325990329,18.7572366516,28.6059694043,40.12,60.11,0.1479643708,1.0119052502,-15.8897486133,1.0197160863,33.395110317,1.1246708309,61.0735046985,1.1246708309,0.7633958212,1.1246708309,2.6095718004,1.1854543608,800000009,800000009,800000009,800000009,800000019,800000019,899999999,899999999,89999,89999,89,89,1,5,0,1,3,2,0,0,0,0,0,0,0,0,0,0,0,0,0,0,0,0,101,0,6000,6000,0,21,6000,6000,6000,6000,100,0.7011449781,0.5021608643,0.239767784,5.96E-03,61.6833025696,8.35E-03,1.70E-04,-1.40E-02,1.6033797184,2.00E-02,2.61E-03,98743.5241549479,363.7492401591,371.4861277103,20.8238639434,21.2667401631,17.4400919126,97.3561628685,97.8252562319,96.8870698153,0.938180727,2.97E-04,2.3501933332,12.2030292491,-785.5881191813,1.14E-05,2.02E-05,5.85E-06,9999.990234375,9999.990234375,9999.990234375,30.602488313
2018-06-28T213000_AIU-0962.ghg,06/28/2018,21:50:00,179.909,0,6000,6000,0.17,0,-19.97,0,36.88,0,73.04,0,0.84,0,3.41,0,-1.1362497877,0.1365042657,0.731863298,3.12E-03,3.81E-02,-2.84E-12,-1.62E-13,-1.99E-14,13.8656144751,365.8728048067,373.657618506,0.2,0,789.5567910372,20.83408263,21.2773772661,0.2,0,9.72E-02,2.4682517737,2.5207696979,-0.1,0,305.9840701396,303.6415817846,98302.0604264322,1.1189844256,1017.302595182,2.57E-02,5.46E-02,1.46E-02,2048.5826128629,4351.9034520354,1.31E-02,47.0732550812,2303.3208391725,291.0536656606,3.6858764426,-1.0899322156,0.2943916358,3.8549064606,-2.09E-15,-2.05E-16,3.8549064606,6.9808131915,156.4732135586,343.5267864414,4.3798304668,-9999,0.39,0.6884372685,264.8911560664,1.03E-02,-0.541339027,-4.45E-02,0,25.4295592271,-3.8590337206,8.7291447833,21.7368047538,33.1499987595,46.49,69.66,0.1718064765,1.0119180973,-17.552972388,1.0188450437,33.0390984041,1.1163129429,65.4277130332,1.1163129429,0.7551757973,1.1163129429,2.9343936995,1.1784771607,800000009,800000009,800000009,800000009,800000009,800000009,899999999,899999999,89999,89999,89,89,0,1,0,1,1,1,0,0,0,0,0,0,0,0,0,0,0,0,0,0,0,0,0,0,6000,6000,0,0,6000,6000,6000,6000,100,0.7588228462,0.4256626152,0.1923890756,6.56E-03,82.2373903729,9.19E-03,2.39E-04,-1.54E-02,1.7159972013,1.98E-02,2.93E-03,98752.4119049479,365.8508790752,373.6358023781,20.8328606285,21.2761231208,17.4484092592,97.3473607546,97.8171634547,96.8775607363,0.939606055,2.97E-04,2.4468232887,12.0766428923,-766.0900687052,1.14E-05,1.92E-05,5.80E-06,9999.990234375,9999.990234375,9999.990234375,30.4915817846
2018-06-28T213000_AIU-0962.ghg,06/28/2018,22:00:00,179.916,0,6000,6000,0.12,0,-14.89,0,28.66,0,57.62,0,0.65,0,2.67,0,-0.7037932408,-8.09E-02,-0.2993320613,-1.85E-03,-1.25E-02,2.08E-11,1.19E-12,1.44E-13,13.8370103254,365.0141954139,372.7787200158,0.2,0,789.5802343721,20.8287763893,21.2718428474,0.2,0,9.59E-02,2.4330449327,2.4848002821,-0.1,0,305.9227042745,303.572908727,98312.2415065104,1.1193557403,1017.297711012,2.57E-02,4.24E-02,1.46E-02,2048.2729748767,4334.8478090643,1.31E-02,47.2513238087,2286.5748341876,291.0512639477,3.474521575,-1.1807004859,0.2447147098,3.6778035704,-2.54E-15,1.50E-15,3.6778035704,7.0297629222,158.7686190914,341.2313809086,3.8151811279,-9999,0.33,0.7089861904,208.9760998266,1.30E-02,-0.5197110439,-3.96E-02,0,23.5732002919,-3.5773240903,8.0919168325,20.1500170566,30.730047401,43.10,64.57,0.1206745028,1.0120015216,-13.0253211623,1.0186829071,25.7223239661,1.1140755239,51.7159406815,1.1140755239,0.5878966244,1.1140755239,2.2934302367,1.1776669491,800000009,800000009,800000009,800000009,800000009,800001009,899999999,899999999,89999,89999,89,89,1,4,0,3,1,1,0,0,0,0,0,0,0,0,0,0,0,0,0,0,0,0,0,0,6000,6000,0,0,6000,6000,6000,6000,100,0.850094783,0.4045916452,0.1632859526,4.78E-03,96.5656551298,1.04E-02,2.70E-04,-1.14E-02,1.355918852,1.54E-02,2.29E-03,98761.7422467447,364.9706134955,372.7347551112,20.8275068063,21.270541193,17.4457983785,97.3364279137,97.8066682243,96.8661900533,0.9404905112,2.97E-04,2.4115580698,11.9409127623,-751.7581683553,9.80E-06,1.81E-05,6.83E-06,9999.990234375,9999.990234375,9999.990234375,30.422908727
2018-06-28T220000_AIU-0962.ghg,06/28/2018,22:10:00,179.923,0,6000,6000,0.10,0,-12.89,0,28.96,0,66.97,0,0.66,0,2.91,0,-0.3325424543,0.1103148089,0.4598062357,2.52E-03,1.09E-02,-2.97E-11,-1.69E-12,-2.08E-13,13.8914796917,366.3341878073,374.1295565615,0.1,0,790.1066233693,20.8360142028,21.2793919149,0.2,0,9.71E-02,2.4635968202,2.5160206624,-0.1,0,305.9075222219,303.5404342259,98221.5908933188,1.1184401771,1017.3006936345,2.57E-02,4.29E-02,1.46E-02,2047.0954272971,4326.8026924337,1.31E-02,47.311966198,2279.7072651366,291.042127368,3.4266373459,-0.7558052278,0.2268948491,3.5163285277,6.99E-15,-2.14E-15,3.5163285277,7.3333432489,152.438435394,347.561564606,3.6996416375,-9999,0.30,0.5509685394,187.8053207229,1.45E-02,-0.4449211255,-3.73E-02,0,21.5816329637,-3.2750960647,7.4082762158,18.4476552586,28.1338382465,39.46,59.12,0.1019896324,1.0120816784,-11.0219136302,1.0184674197,26.0525344307,1.1116087141,60.2483989957,1.1116087141,0.5954248764,1.1116087141,2.5085596684,1.1760546225,800000009,800000009,800000009,800000009,800000019,800000019,899999999,899999999,89999,89999,89,89,2,5,0,1,2,2,0,0,0,0,0,0,0,0,0,0,0,0,0,0,0,0,101,0,6000,6000,0,11,6000,6000,6000,6000,100,0.5637622485,0.3659424866,0.1722323437,5.30E-03,97.736747164,1.09E-02,2.54E-04,-9.69E-03,1.5809282691,1.56E-02,2.51E-03,98778.3012565104,366.3146310314,374.1102491284,20.834735961,21.2780813931,17.4535194631,97.331738224,97.8024358037,96.8610260493,0.9414017334,2.96E-04,2.4459372023,13.321611717,-752.5914183757,1.09E-05,2.03E-05,9.91E-06,9999.990234375,9999.990234375,9999.990234375,30.3904342259
2018-06-28T220000_AIU-0962.ghg,06/28/2018,22:20:00,179.93,0,6000,6000,0.11,0,-13.83,0,25.52,0,48.31,0,0.58,0,2.15,0,-1.0820470349,-1.963487852,-1.3567895684,-4.49E-02,-6.41E-02,-7.44E-12,-4.25E-13,-4.87E-14,13.7490095648,362.4451125111,370.1091092869,0.1,0,785.5154029514,20.7073983955,21.1452617549,0.2,0,9.01E-02,2.2836840598,2.331973157,-0.1,0,305.7799152832,303.4349251926,98337.3941066292,1.1202030844,1017.2254601149,2.57E-02,3.78E-02,1.45E-02,2036.8578159727,4300.7537647492,1.30E-02,47.3604844032,2263.8959487764,290.9624989693,4.3706509086,-0.3759714129,0.1663102563,4.3899433902,3.62E-15,-5.41E-16,4.3899433902,7.5148391733,144.9165847744,355.0834152256,2.1711342839,-9999,0.31,0.7234034962,183.5608626058,1.48E-02,-0.5417531072,-3.93E-02,0,21.281017054,-3.2294764406,7.3050845019,18.1906933004,27.741955047,38.91,58.29,0.1054012563,1.0119800015,-12.1563660039,1.020242838,22.5982630863,1.1293641829,42.7779117058,1.1293641829,0.51642509,1.1293641829,1.8284136296,1.1900370497,800000009,800000009,800000009,800000009,800000019,800001119,899999999,899999999,89999,89999,89,89,2,6,0,7,3,3,0,0,0,0,0,0,0,0,0,0,0,2,0,0,0,0,0,0,6000,6000,0,0,6000,6000,6000,6000,100,0.8300882489,0.4326811095,0.184037634,6.94E-03,74.3156324409,1.14E-02,1.92E-04,-1.07E-02,1.1206408787,1.35E-02,1.83E-03,98785.9799882812,362.4099331776,370.0736081059,20.706153234,21.1439865013,17.3567240089,97.3295074355,97.801006965,96.8580021731,0.9430052534,2.98E-04,2.2637410536,13.2774236651,-762.2571186117,1.17E-05,2.02E-05,1.11E-05,9999.990234375,9999.990234375,9999.990234375,30.2849251926
2018-06-28T220000_AIU-0962.ghg,06/28/2018,22:30:00,179.937,0,6000,6000,0.16,0,-22.24,0,36.60,0,65.48,0,0.84,0,2.90,0,-1.5930453129,-3.8073231457,0.7556599806,-8.70E-02,3.37E-02,5.56E-12,3.12E-13,3.77E-14,13.8393304589,364.6099005743,372.2249465835,0.2,0,776.5218450062,20.4581828248,20.8854614128,0.2,0,9.39E-02,2.3783001506,2.4279720466,-0.1,0,305.6187472458,303.2796695709,98342.5174160156,1.1209413893,1017.0806221585,2.56E-02,5.42E-02,1.44E-02,2012.4488740941,4262.670879218,1.28E-02,47.210984172,2250.2220051239,290.7712196663,4.1094626722,-0.2972043322,0.2777053747,4.1295440601,3.70E-15,4.01E-16,4.1295440601,6.8462996679,144.1365402226,355.8634597774,3.8559615642,-9999,0.37,0.6406013532,199.8593224845,1.36E-02,-0.6076281433,-5.24E-02,0,22.9478319259,-3.4824220281,7.8772481094,19.6154615832,29.9148165756,41.96,62.86,0.1532458748,1.0119381595,-19.8148551551,1.0196153447,32.5741359932,1.1235937005,58.2749547287,1.1235937005,0.7442851902,1.1235937005,2.4824080085,1.1851612242,800000009,800000009,800000009,800000009,800000009,800000009,899999999,899999999,89999,89999,89,89,2,2,0,1,1,1,0,0,0,0,0,0,0,0,0,0,0,0,0,0,0,0,0,0,6000,6000,0,0,6000,6000,6000,6000,100,0.547038609,0.5127157994,0.221448298,7.90E-03,64.6626221219,1.50E-02,1.65E-04,-1.74E-02,1.525363654,1.95E-02,2.48E-03,98791.9191979166,364.5872061877,372.2022476934,20.4568770505,20.8841267939,17.1662388304,97.3273490181,97.8002162768,96.8544749387,0.9457424783,2.96E-04,2.3580915488,13.1489020517,-762.4237686157,1.04E-05,1.90E-05,9.89E-06,9999.990234375,9999.990234375,9999.990234375,30.1296695709
2018-06-28T223000_AIU-0962.ghg,06/28/2018,22:40:00,179.944,0,6000,6000,0.19,0,-23.34,0,33.12,0,69.90,0,0.76,0,2.90,0,0.1540418625,-3.074851436,-7.42E-02,-7.03E-02,-6.33E-03,3.62E-12,2.01E-13,2.44E-14,13.8340699595,364.3972214339,371.9313433326,0.1,0,769.0326432272,20.2567544623,20.6755744983,0.2,0,9.32E-02,2.3605216551,2.4093267965,-0.1,0,305.6428677165,303.2946943356,98271.6284645702,1.1201638602,1016.9673607995,2.57E-02,4.90E-02,1.42E-02,1991.1982230304,4266.34346992,1.27E-02,46.6722437391,2275.1452468897,290.6030253763,4.3132704541,3.70E-02,0.272051885,4.3219997388,9.88E-15,2.62E-16,4.3219997388,7.7604475175,139.508787336,0.491212664,3.6089165933,-9999,0.42,0.8656291905,265.1937845905,1.03E-02,-0.7046046015,-4.93E-02,0,25.05719106,-3.8025254146,8.6013228414,21.4185100452,32.6645792457,45.81,68.64,0.1910394064,1.0118919247,-21.1012365325,1.0198025358,29.4217584202,1.1257758473,62.0905708676,1.1257758473,0.6722664917,1.1257758473,2.4781737079,1.1858640527,800000009,800000009,800000009,800000009,800000019,800000019,899999999,899999999,89999,89999,89,89,0,2,0,1,2,1,0,0,0,0,0,0,0,0,0,0,0,0,0,0,0,0,101,0,6000,6000,0,11,6000,6000,6000,6000,100,1.050772346,0.4587627987,0.2217232363,1.06E-02,72.4978831859,1.99E-02,1.83E-04,-1.85E-02,1.6261569655,1.76E-02,2.48E-03,98797.256095052,364.3767786727,371.9109272983,20.255499945,20.6742984419,17.0105564267,97.3230135829,97.7966414235,96.849375253,0.9472452274,2.97E-04,2.3518556254,12.0981797577,-718.0948675334,9.30E-06,1.69E-05,9.96E-06,9999.990234375,9999.990234375,9999.990234375,30.1446943356
2018-06-28T223000_AIU-0962.ghg,06/28/2018,22:50:00,179.951,0,6000,6000,0.10,0,-8.69,0,-7.56,2,45.03,0,-0.17,2,1.94,0,-1.1557863422,3.9217067319,-0.9333646904,8.96E-02,-4.13E-02,5.54E-11,3.14E-12,3.58E-13,13.7360090426,361.7244481166,369.3000203765,0.2,0,778.9665679473,20.5133274896,20.942936811,0.2,1,8.86E-02,2.244506497,2.2915130547,-0.1,0,305.5266250916,303.1821002553,98351.2269720052,1.1213778688,1017.1090301492,2.56E-02,-1.12E-02,1.44E-02,2018.0521038322,4238.8882432156,1.29E-02,47.6080516409,2220.8361393834,290.8153083384,3.7814573184,0.4894323096,0.1869943318,3.8175817367,1.73E-16,4.04E-15,3.8175817367,6.7559667229,132.6252315449,7.3747684551,2.8076085007,-9999,0.30,0.7197901373,258.9047995555,1.05E-02,1.1490996648,-2.57E-02,0,23.1736298564,-3.5166877351,7.9547572321,19.808470258,30.2091669828,42.37,63.48,9.74E-02,1.0119537935,-9.0294302109,1.0189084481,-6.771929856,1.1166828897,40.3253761462,1.1166828897,-0.1547168362,1.1166828897,1.6633458711,1.1793984749,800000009,800000009,800000009,800000009,800000009,800001019,899999999,899999999,89999,89999,89,89,0,1,0,2,2,1,0,0,0,0,0,0,0,0,0,0,0,0,0,0,0,0,0,0,6000,6000,0,0,6000,6000,6000,6000,100,0.8454960352,0.4568429563,0.1372412831,1.03E-02,55.9274029697,0.1410687919,1.32E-04,-7.92E-03,1.055154683,-4.05E-03,1.66E-03,98800.4225917968,361.6989935493,369.2732109357,20.5119615057,20.9416631376,17.2072592417,97.3218202362,97.7959488633,96.8477071584,0.9482310523,2.98E-04,2.2251901653,11.9000109911,-780.7552690633,1.12E-05,1.96E-05,8.50E-06,9999.990234375,9999.990234375,9999.990234375,30.0321002553
